{"type":"FeatureCollection","crs":{"type":"name","properties":{"name":"EPSG:4326"}},"features":[{"type":"Feature","geometry":{"type":"Point","coordinates":[45.1354817210001,36.7141257330001]},"properties":{"Date":"13 June 2025","SiteTargeted":"Piranshahr Radar Site","Status":"Targeted by the IAF"}},{"type":"Feature","geometry":{"type":"Point","coordinates":[51.3642226330001,35.722003735]},"properties":{"Date":"13 June 2025","SiteTargeted":"Tehran - Sattarkhan","Status":"HVT"}},{"type":"Feature","geometry":{"type":"Point","coordinates":[51.7229557160001,33.7230842440001]},"properties":{"Date":"13 June 2025","SiteTargeted":"Natanz Nuclear Site","Status":"Damaged"}},{"type":"Feature","geometry":{"type":"Point","coordinates":[51.44469352,35.7911364240001]},"properties":{"Date":"13 June 2025","SiteTargeted":"Tehran - Gheytarieh","Status":"HVT (High-Value Target)"}},{"type":"Feature","geometry":{"type":"Point","coordinates":[51.4689266780001,35.814398259]},"properties":{"Date":"13 June 2025","SiteTargeted":"Tehran - Niavaran","Status":"HVT (High-Value Target)"}},{"type":"Feature","geometry":{"type":"Point","coordinates":[51.1815056930001,35.7237655270001]},"properties":{"Date":"13 June 2025","SiteTargeted":"Tehran - Chitgar","Status":"HVT"}},{"type":"Feature","geometry":{"type":"Point","coordinates":[51.281586792,35.6927796260001]},"properties":{"Date":"13 June 2025","SiteTargeted":"Tehran - Mehrabad","Status":"HVT"}},{"type":"Feature","geometry":{"type":"Point","coordinates":[51.5158942040001,35.7480108070001]},"properties":{"Date":"13 June 2025","SiteTargeted":"Tehran - Narmak","Status":"HVT"}},{"type":"Feature","geometry":{"type":"Point","coordinates":[51.380670792,35.787142239]},"properties":{"Date":"13 June 2025","SiteTargeted":"Tehran - Sa'adat Abad","Status":"HVT"}},{"type":"Feature","geometry":{"type":"Point","coordinates":[51.445156614,35.675883936]},"properties":{"Date":"13 June 2025","SiteTargeted":"Tehran - Andarzgoo","Status":null}},{"type":"Feature","geometry":{"type":"Point","coordinates":[51.5095644180001,35.8045195560001]},"properties":{"Date":"13 June 2025","SiteTargeted":"Tehran - Shahrak-e Mahallati","Status":"HVT"}},{"type":"Feature","geometry":{"type":"Point","coordinates":[50.9810786630001,35.66268576]},"properties":{"Date":"13 June 2025","SiteTargeted":"Tehran - Shahrak-e Chamran","Status":"HVT"}},{"type":"Feature","geometry":{"type":"Point","coordinates":[51.402466426,35.68407233]},"properties":{"Date":"13 June 2025","SiteTargeted":"Tehran - Kamranieh","Status":"HVT"}},{"type":"Feature","geometry":{"type":"Point","coordinates":[51.332683859,35.6690894230001]},"properties":{"Date":"13 June 2025","SiteTargeted":"Tehran - Farahzadi","Status":"HVT"}},{"type":"Feature","geometry":{"type":"Point","coordinates":[51.5144366310001,35.7894982610001]},"properties":{"Date":"13 June 2025","SiteTargeted":"Tehran - Ozgol","Status":"HVT"}},{"type":"Feature","geometry":{"type":"Point","coordinates":[51.3535790280001,35.7357345070001]},"properties":{"Date":"13 June 2025","SiteTargeted":"Tehran - Marzdaran","Status":"HVT"}},{"type":"Feature","geometry":{"type":"Point","coordinates":[46.1021235260001,37.96589183]},"properties":{"Date":"13 June 2025","SiteTargeted":"Tabriz Ballistic Missile Base Cluster","Status":"Targeted by the IAF"}},{"type":"Feature","geometry":{"type":"Point","coordinates":[47.236821391,34.3687211590001]},"properties":{"Date":"13 June 2025","SiteTargeted":"Kermanshah Ballistic Missile Base Cluster","Status":"Targeted by the IAF"}},{"type":"Feature","geometry":{"type":"Point","coordinates":[50.8987214270001,35.6257819950001]},"properties":{"Date":"13 June 2025","SiteTargeted":"Shahid Modarres Garrison Rocket Production Facility near Bid Kaneh","Status":"Targeted by the IAF"}},{"type":"Feature","geometry":{"type":"Point","coordinates":[46.1171357590001,38.2512742750001]},"properties":{"Date":"13 June 2025","SiteTargeted":"Tabriz Ballistic Missile Base Cluster","Status":"Targeted by the IAF"}},{"type":"Feature","geometry":{"type":"Point","coordinates":[48.2707162900001,35.1859055990001]},"properties":{"Date":"13 June 2025","SiteTargeted":"Subashi radar site","Status":"Targeted by the IAF"}},{"type":"Feature","geometry":{"type":"Point","coordinates":[46.232131231,38.1352323260001]},"properties":{"Date":"13 June 2025","SiteTargeted":"Tabriz International Airport","Status":"Targeted by the IAF"}},{"type":"Feature","geometry":{"type":"Point","coordinates":[51.138976943,35.309346324]},"properties":{"Date":"13 June 2025","SiteTargeted":"Mobile Anti-Aircraft Sytem","Status":"Targeted by Israeli Forces"}},{"type":"Feature","geometry":{"type":"Point","coordinates":[52.513130419,29.603418978]},"properties":{"Date":"13 June 2025","SiteTargeted":"Missile Factory in Shiraz","Status":"Targeted by Israel; Precise location unknown"}},{"type":"Feature","geometry":{"type":"Point","coordinates":[48.746722289,33.891011023]},"properties":{"Date":"13 June 2025","SiteTargeted":"Missile depot IVO Borujerd","Status":"Targeted by Israel; Precise location unknown"}},{"type":"Feature","geometry":{"type":"Point","coordinates":[48.6690349530001,35.2061735940001]},"properties":{"Date":"13 June 2025","SiteTargeted":"Hamadan Air Force Base","Status":"Targeted by Israel; Phantom fleet destroyed"}},{"type":"Feature","geometry":{"type":"Point","coordinates":[51.929569531,27.8298767200001]},"properties":{"Date":"13 June 2025","SiteTargeted":"Dayyer Port - Bushehr","Status":"Targeted by Israel"}},{"type":"Feature","geometry":{"type":"Point","coordinates":[48.1983532770001,33.5654443650001]},"properties":{"Date":"13 June 2025","SiteTargeted":"Khorramabad Ballistic Missile Cluster","Status":"Targeted by Israel"}},{"type":"Feature","geometry":{"type":"Point","coordinates":[51.2913917480001,35.6180527400001]},"properties":{"Date":"14 June 2025","SiteTargeted":"Iranian Air Force HQ","Status":"Targeted by Israel"}},{"type":"Feature","geometry":{"type":"Point","coordinates":[51.3055678710001,35.6104194430001]},"properties":{"Date":"14 June 2025","SiteTargeted":"Basij HQ","Status":"Targeted by Israel"}},{"type":"Feature","geometry":{"type":"Point","coordinates":[50.8733061560001,35.662453971]},"properties":{"Date":"14 June 2025","SiteTargeted":"Military Base IVO Safadasht","Status":"Targeted by Israel"}},{"type":"Feature","geometry":{"type":"Point","coordinates":[48.0215471480001,33.967595601]},"properties":{"Date":"14 June 2025","SiteTargeted":"Military targets IVO Asadabad","Status":"Targeted by Israel"}},{"type":"Feature","geometry":{"type":"Point","coordinates":[48.209624665,33.5588962050001]},"properties":{"Date":"14 June 2025","SiteTargeted":"Khorramabad / Imam Ali Missile Cluster","Status":"Targeted by Israel"}},{"type":"Feature","geometry":{"type":"Point","coordinates":[51.2981524370001,35.6922169470001]},"properties":{"Date":"14 June 2025","SiteTargeted":"Mehrabad Airport in Tehran - 14th Tactical Fighter Squadron (Mig-29 & Su-24)","Status":"Targeted by Israel"}},{"type":"Feature","geometry":{"type":"Point","coordinates":[45.590809264,34.511765532]},"properties":{"Date":"14 June 2025","SiteTargeted":"Military Site IVO Qasr-e Shirin","Status":"Targeted by Israel"}},{"type":"Feature","geometry":{"type":"Point","coordinates":[51.82864196,32.578394234]},"properties":{"Date":"14 June 2025","SiteTargeted":"Isfahan Nuclear Site","Status":"Targeted by Israel"}},{"type":"Feature","geometry":{"type":"Point","coordinates":[48.3718695630001,36.7172526270001]},"properties":{"Date":"14 June 2025","SiteTargeted":"Military Target IVO Zanjan: 216th Armored Brigade munition?","Status":"Targeted by Israel"}},{"type":"Feature","geometry":{"type":"Point","coordinates":[50.990978603,34.883346079]},"properties":{"Date":"14 June 2025","SiteTargeted":"Several elements IVO Fordow nuclear site","Status":"Targeted by Israel"}},{"type":"Feature","geometry":{"type":"Point","coordinates":[47.9675378370001,34.5212069570001]},"properties":{"Date":"14 June 2025","SiteTargeted":"Kangavar Missile Base","Status":"Targeted by Israel"}},{"type":"Feature","geometry":{"type":"Point","coordinates":[49.1070931730001,30.4257415210001]},"properties":{"Date":"14 June 2025","SiteTargeted":"Bahmanshir Port near Abadan","Status":"Targeted by Israel"}},{"type":"Feature","geometry":{"type":"Point","coordinates":[50.0862601050001,36.18374089]},"properties":{"Date":"14 June 2025","SiteTargeted":"Alborz Industrial City near Qazvin","Status":"Targeted by Israel"}},{"type":"Feature","geometry":{"type":"Point","coordinates":[50.2676106580001,37.2249505500001]},"properties":{"Date":"14 June 2025","SiteTargeted":"Chamkhaleh","Status":"Targeted by Israel"}},{"type":"Feature","geometry":{"type":"Point","coordinates":[45.0543777730001,37.5913175530001]},"properties":{"Date":"14 June 2025","SiteTargeted":"Military Base IVO Urmia","Status":"Targeted by Israel"}},{"type":"Feature","geometry":{"type":"Point","coordinates":[52.0546687520001,27.829642382]},"properties":{"Date":"14 June 2025","SiteTargeted":"Kangan Port ","Status":"Targeted by Israel"}},{"type":"Feature","geometry":{"type":"Point","coordinates":[52.5076206580001,29.5848162140001]},"properties":{"Date":"14 June 2025","SiteTargeted":"Targets in Shiraz","Status":"Targeted by Israel"}},{"type":"Feature","geometry":{"type":"Point","coordinates":[48.7570674630001,33.885179242]},"properties":{"Date":"14 June 2025","SiteTargeted":"Targets IVO Borujerd","Status":"Targeted by Israel"}},{"type":"Feature","geometry":{"type":"Point","coordinates":[52.201782081,27.933185999]},"properties":{"Date":"14 June 2025","SiteTargeted":"Fajr Jam Gas Refining Power Station","Status":"Targeted by Israel"}},{"type":"Feature","geometry":{"type":"Point","coordinates":[52.0022207260001,26.8158313800001]},"properties":{"Date":"14 June 2025","SiteTargeted":"South Pars Field","Status":"Phase 14 targeted by Israel"}},{"type":"Feature","geometry":{"type":"Point","coordinates":[57.298548763,25.8569755940001]},"properties":{"Date":"14 June 2025","SiteTargeted":"Jask Oil & Gas Terminal","Status":"Targeted by Israel"}},{"type":"Feature","geometry":{"type":"Point","coordinates":[51.298021476,35.781242181]},"properties":{"Date":"14 June 2025","SiteTargeted":"Shahran Oil Depot in Tehran","Status":"Targeted by Israel"}},{"type":"Feature","geometry":{"type":"Point","coordinates":[46.1586181000001,38.057675283]},"properties":{"Date":"14 June 2025","SiteTargeted":"Tabriz Oil Refinery","Status":"Targeted by Israel"}},{"type":"Feature","geometry":{"type":"Point","coordinates":[51.493274033,35.783453798]},"properties":{"Date":"14 June 2025","SiteTargeted":"Malek Ashtar University in Tehran","Status":"Targeted by Israel"}},{"type":"Feature","geometry":{"type":"Point","coordinates":[51.4876843070001,35.792006685]},"properties":{"Date":"14 June 2025","SiteTargeted":"Target in the Aghdasieh neighborhood in Tehran","Status":"Targeted by Israel"}},{"type":"Feature","geometry":{"type":"Point","coordinates":[51.481075316,35.791694449]},"properties":{"Date":"14 June 2025","SiteTargeted":"Target in the Nobonyad area in Tehran","Status":"Targeted by Israel"}},{"type":"Feature","geometry":{"type":"Point","coordinates":[51.508012159,35.7359571050001]},"properties":{"Date":"14 June 2025","SiteTargeted":"Target in Narmak neighborhood in Tehran","Status":"Targeted by Israel"}},{"type":"Feature","geometry":{"type":"Point","coordinates":[51.3289019920001,35.7738637030001]},"properties":{"Date":"14 June 2025","SiteTargeted":"Target in Almahdi neighborhood in Tehran","Status":"Targeted by Israel"}},{"type":"Feature","geometry":{"type":"Point","coordinates":[48.0748701790001,34.813317311]},"properties":{"Date":"15 June 2025","SiteTargeted":"Ballistic missiles in TELs - Cargo trucks","Status":"Targeted by Israel"}},{"type":"Feature","geometry":{"type":"Point","coordinates":[51.497794813,35.7870846970001]},"properties":{"Date":"14 June 2025","SiteTargeted":"Target near the Malek Ashtar University in Tehran","Status":"Targeted by Israel"}},{"type":"Feature","geometry":{"type":"Point","coordinates":[47.243976004,34.354966792]},"properties":{"Date":"14 June 2025","SiteTargeted":"Target near Kermanshah","Status":"Targeted by Israel"}},{"type":"Feature","geometry":{"type":"Point","coordinates":[48.0431888260001,34.6234611020001]},"properties":{"Date":"14 June 2025","SiteTargeted":"Military Convoy ","Status":"Targeted by Israel"}},{"type":"Feature","geometry":{"type":"Point","coordinates":[46.198660165,38.0575533590001]},"properties":{"Date":"14 June 2025","SiteTargeted":"Target near Tabriz","Status":"Targeted by Israel"}},{"type":"Feature","geometry":{"type":"Point","coordinates":[47.2159342140001,34.3313155480001]},"properties":{"Date":"14 June 2025","SiteTargeted":"Numerous targets IVO Kermanshah","Status":"Targeted by Israel"}},{"type":"Feature","geometry":{"type":"Point","coordinates":[51.338013749,35.686078142]},"properties":{"Date":"14 June 2025","SiteTargeted":"Fighter jets hangar at Mehrabad airbase in Tehran","Status":"Targeted by Israel"}},{"type":"Feature","geometry":{"type":"Point","coordinates":[51.2056320240001,35.6781135620001]},"properties":{"Date":"14 June 2025","SiteTargeted":"Possible radar site in Tehran","Status":"Targeted by Israel"}},{"type":"Feature","geometry":{"type":"Point","coordinates":[50.9561167350001,35.7675611020001]},"properties":{"Date":"13 June 2025","SiteTargeted":"IRGC Base in Mohammad Shahr near Karaj","Status":"Targeted by Israel"}},{"type":"Feature","geometry":{"type":"Point","coordinates":[51.4243545590001,35.5423928930001]},"properties":{"Date":"15 June 2025","SiteTargeted":"Tehran Oil Refinery","Status":"Targeted by Israel"}},{"type":"Feature","geometry":{"type":"Point","coordinates":[51.593087385,32.7193669760001]},"properties":{"Date":"15 June 2025","SiteTargeted":"Military Drone Factory in Isfahan","Status":"Targeted by Israel"}},{"type":"Feature","geometry":{"type":"Point","coordinates":[51.7388740060001,32.653635615]},"properties":{"Date":"15 June 2025","SiteTargeted":"Multiple targets struck in Isfahan","Status":"Targeted by Israel"}},{"type":"Feature","geometry":{"type":"Point","coordinates":[59.6406504380001,36.230890329]},"properties":{"Date":"15 June 2025","SiteTargeted":"IAF strike on an Iranian aerial refueling aircraft at Mashhad airport some 2,300 kilometers from Israel.","Status":"Targeted by Israel"}},{"type":"Feature","geometry":{"type":"Point","coordinates":[51.080865998,35.728217633]},"properties":{"Date":"15 June 2025","SiteTargeted":"IDF strike on Ghadir / Garmdareh Military Base","Status":"Targeted by Israel"}},{"type":"Feature","geometry":{"type":"Point","coordinates":[51.8243195700001,32.5785251950001]},"properties":{"Date":"15 June 2025","SiteTargeted":"Structure destroyed in Isfahan Nuclear Site","Status":"Targetd by Israel"}},{"type":"Feature","geometry":{"type":"Point","coordinates":[51.8249656450001,32.577486236]},"properties":{"Date":"15 June 2025","SiteTargeted":"Structure destroyed in Isfahan Nuclear Site","Status":"Targeted by Israel"}},{"type":"Feature","geometry":{"type":"Point","coordinates":[51.82782933,32.57904904]},"properties":{"Date":"15 June 2025","SiteTargeted":"Structure destroyed in Isfahan Nuclear Site","Status":"Targeted by Israel"}},{"type":"Feature","geometry":{"type":"Point","coordinates":[50.903366616,35.6265951770001]},"properties":{"Date":"15 June 2025","SiteTargeted":"Shahid Modarres Garrison rocket production facility near Bid Kaneh","Status":"Targeted by Israel"}},{"type":"Feature","geometry":{"type":"Point","coordinates":[50.9026321850001,35.6243419460001]},"properties":{"Date":"15 June 2025","SiteTargeted":"Shahid Modarres Garrison rocket production facility near Bid Kaneh","Status":"Targeted by Israel"}},{"type":"Feature","geometry":{"type":"Point","coordinates":[49.2396697710001,34.370351268]},"properties":{"Date":"15 June 2025","SiteTargeted":"Arak nuclear site","Status":"Allegedly targeted by Israel"}},{"type":"Feature","geometry":{"type":"Point","coordinates":[51.7207823530001,33.730467145]},"properties":{"Date":"15 June 2025","SiteTargeted":"Structure destroyed in Natanz nuclear site","Status":"Targeted by Israel"}},{"type":"Feature","geometry":{"type":"Point","coordinates":[51.721075226,33.728563057]},"properties":{"Date":"15 June 2025","SiteTargeted":"Structure destroyed in Natanz nuclear site","Status":"Targeted by Israel"}},{"type":"Feature","geometry":{"type":"Point","coordinates":[51.7238308670001,33.728372071]},"properties":{"Date":"15 June 2025","SiteTargeted":"Structure destroyed in Natanz nuclear site","Status":"Targeted by Israel"}},{"type":"Feature","geometry":{"type":"Point","coordinates":[51.381186691,35.6452694760001]},"properties":{"Date":"15 June 2025","SiteTargeted":"Iranian Intel MOD buidling, Iranian Nuclear Agency HQ, IRGC HQ, IRGC Navy HQ","Status":"Multiple targets struck by Israel"}},{"type":"Feature","geometry":{"type":"Point","coordinates":[51.7519814600001,35.53251099]},"properties":{"Date":"15 June 2025","SiteTargeted":"Parchin Military Base","Status":"Targeted by Israel"}},{"type":"Feature","geometry":{"type":"Point","coordinates":[51.724467389,33.726189989]},"properties":{"Date":"15 June 2025","SiteTargeted":"Structure destroyed in Natanz nuclear site","Status":"Targeted by Israel"}},{"type":"Feature","geometry":{"type":"Point","coordinates":[51.7216319280001,33.7252109290001]},"properties":{"Date":"15 June 2025","SiteTargeted":"Structure destroyed in Natanz nuclear site","Status":"Targeted by Israel"}},{"type":"Feature","geometry":{"type":"Point","coordinates":[51.4090001370001,35.7863301850001]},"properties":{"Date":"16 June 2025","SiteTargeted":"Building of IRIB in Tehran's District 3","Status":"Targeted by Israel"}},{"type":"Feature","geometry":{"type":"Point","coordinates":[48.7322176640001,31.273094198]},"properties":{"Date":"16 June 2025","SiteTargeted":"Ahwaz Steel Company (KSC)","Status":"Targeted by Israel"}},{"type":"Feature","geometry":{"type":"Point","coordinates":[51.324338723,35.6863842500001]},"properties":{"Date":"16 June 2025","SiteTargeted":"Two IRIAF F-14A Tomcats at Mehrabad Airport","Status":"Targeted by Israel"}},{"type":"Feature","geometry":{"type":"Point","coordinates":[51.3270932300001,35.696556623]},"properties":{"Date":"16 June 2025","SiteTargeted":"Iran Helicopter Support & Renewal Company","Status":"Targeted by Israel"}},{"type":"Feature","geometry":{"type":"Point","coordinates":[47.102971789,34.352978486]},"properties":{"Date":"16 June 2025","SiteTargeted":"Kermanshah Oil Refining Company","Status":"Targeted by Israel"}},{"type":"Feature","geometry":{"type":"Point","coordinates":[48.493834415,36.6741190920001]},"properties":{"Date":"16 June 2025","SiteTargeted":"IRGC Base in Zanjan","Status":"Targeted by Israel"}},{"type":"Feature","geometry":{"type":"Point","coordinates":[45.772224152,38.434547206]},"properties":{"Date":"16 June 2025","SiteTargeted":"Unknown target(s) IVO Marand","Status":"Targeted by Israel"}},{"type":"Feature","geometry":{"type":"Point","coordinates":[50.7198212640001,35.3415895430001]},"properties":{"Date":"16 June 2025","SiteTargeted":"Raad ADS on the Saveh-Tehran Highway","Status":"Targeted by Israel"}},{"type":"Feature","geometry":{"type":"Point","coordinates":[51.1820574930001,35.7260728910001]},"properties":{"Date":"16 June 2025","SiteTargeted":"Target in Chitgar, west Tehran","Status":"Targeted by Israel"}},{"type":"Feature","geometry":{"type":"Point","coordinates":[48.66680991,31.3215063120001]},"properties":{"Date":"17 June 2025","SiteTargeted":"IRGC & Iranian Army targets","Status":"Targeted by Israel"}},{"type":"Feature","geometry":{"type":"Point","coordinates":[50.847751816,28.908839329]},"properties":{"Date":"16 June 2025","SiteTargeted":"Unknown targets IVO Bushehr","Status":"Targeted by Israel"}},{"type":"Feature","geometry":{"type":"Point","coordinates":[51.4253936800001,35.5443672220001]},"properties":{"Date":"17 June 2025","SiteTargeted":"Tehran Oil Refinery south of Rey","Status":"Targeted by Israel"}},{"type":"Feature","geometry":{"type":"Point","coordinates":[51.793715035,32.6057474190001]},"properties":{"Date":"17 June 2025","SiteTargeted":"Structures in Isfahan","Status":"Targeted by Israel"}},{"type":"Feature","geometry":{"type":"Point","coordinates":[51.437068034,32.698914847]},"properties":{"Date":"17 June 2025","SiteTargeted":"Missile Base - Isfahan Cluster","Status":"Targeted by Israel"}},{"type":"Feature","geometry":{"type":"Point","coordinates":[51.42038288,32.6845688350001]},"properties":{"Date":"17 June 2025","SiteTargeted":"IRGC Infrastructure","Status":"Targeted by Israel"}},{"type":"Feature","geometry":{"type":"Point","coordinates":[51.5338996780001,32.8750914570001]},"properties":{"Date":"17 June 2025","SiteTargeted":"Structure IVO Shahin Shahr","Status":"Targeted by Israel"}},{"type":"Feature","geometry":{"type":"Point","coordinates":[51.429504368,32.6924418450001]},"properties":{"Date":"17 June 2025","SiteTargeted":"Missile Base - Isfahan Cluster","Status":"Targeted by Israel"}},{"type":"Feature","geometry":{"type":"Point","coordinates":[50.0261686090001,36.2661583030001]},"properties":{"Date":"17 June 2025","SiteTargeted":"16th Armored Regiment of the Iranian Army","Status":"Targeted by Israel"}},{"type":"Feature","geometry":{"type":"Point","coordinates":[51.3909535880001,35.7666966290001]},"properties":{"Date":"17 June 2025","SiteTargeted":"Infrastructures in Tehran","Status":"Targeted by Israel"}}]}