{"type":"FeatureCollection","crs":{"type":"name","properties":{"name":"EPSG:4326"}},"features":[{"type":"Feature","geometry":{"type":"Point","coordinates":[45.1354817210001,36.7141257330001]},"properties":{"Date":"13 June 2025","SiteTargeted":"Piranshahr Radar Site","Status":"Targeted by the IAF"}},{"type":"Feature","geometry":{"type":"Point","coordinates":[51.3642226330001,35.722003735]},"properties":{"Date":"13 June 2025","SiteTargeted":"Tehran - Sattarkhan","Status":"HVT"}},{"type":"Feature","geometry":{"type":"Point","coordinates":[51.7229557160001,33.7230842440001]},"properties":{"Date":"13 June 2025","SiteTargeted":"Natanz Nuclear Site","Status":"Damaged"}},{"type":"Feature","geometry":{"type":"Point","coordinates":[51.44469352,35.7911364240001]},"properties":{"Date":"13 June 2025","SiteTargeted":"Tehran - Gheytarieh","Status":"HVT (High-Value Target)"}},{"type":"Feature","geometry":{"type":"Point","coordinates":[51.4689266780001,35.814398259]},"properties":{"Date":"13 June 2025","SiteTargeted":"Tehran - Niavaran","Status":"HVT (High-Value Target)"}},{"type":"Feature","geometry":{"type":"Point","coordinates":[51.1815056930001,35.7237655270001]},"properties":{"Date":"13 June 2025","SiteTargeted":"Tehran - Chitgar","Status":"HVT"}},{"type":"Feature","geometry":{"type":"Point","coordinates":[51.281586792,35.6927796260001]},"properties":{"Date":"13 June 2025","SiteTargeted":"Tehran - Mehrabad","Status":"HVT"}},{"type":"Feature","geometry":{"type":"Point","coordinates":[51.5158942040001,35.7480108070001]},"properties":{"Date":"13 June 2025","SiteTargeted":"Tehran - Narmak","Status":"HVT"}},{"type":"Feature","geometry":{"type":"Point","coordinates":[51.380670792,35.787142239]},"properties":{"Date":"13 June 2025","SiteTargeted":"Tehran - Sa'adat Abad","Status":"HVT"}},{"type":"Feature","geometry":{"type":"Point","coordinates":[51.445156614,35.675883936]},"properties":{"Date":"13 June 2025","SiteTargeted":"Tehran - Andarzgoo","Status":null}},{"type":"Feature","geometry":{"type":"Point","coordinates":[51.5095644180001,35.8045195560001]},"properties":{"Date":"13 June 2025","SiteTargeted":"Tehran - Shahrak-e Mahallati","Status":"HVT"}},{"type":"Feature","geometry":{"type":"Point","coordinates":[50.9810786630001,35.66268576]},"properties":{"Date":"13 June 2025","SiteTargeted":"Tehran - Shahrak-e Chamran","Status":"HVT"}},{"type":"Feature","geometry":{"type":"Point","coordinates":[51.402466426,35.68407233]},"properties":{"Date":"13 June 2025","SiteTargeted":"Tehran - Kamranieh","Status":"HVT"}},{"type":"Feature","geometry":{"type":"Point","coordinates":[51.332683859,35.6690894230001]},"properties":{"Date":"13 June 2025","SiteTargeted":"Tehran - Farahzadi","Status":"HVT"}},{"type":"Feature","geometry":{"type":"Point","coordinates":[51.5144366310001,35.7894982610001]},"properties":{"Date":"13 June 2025","SiteTargeted":"Tehran - Ozgol","Status":"HVT"}},{"type":"Feature","geometry":{"type":"Point","coordinates":[51.3535790280001,35.7357345070001]},"properties":{"Date":"13 June 2025","SiteTargeted":"Tehran - Marzdaran","Status":"HVT"}},{"type":"Feature","geometry":{"type":"Point","coordinates":[46.1021235260001,37.96589183]},"properties":{"Date":"13 June 2025","SiteTargeted":"Tabriz Ballistic Missile Base Cluster","Status":"Targeted by the IAF"}},{"type":"Feature","geometry":{"type":"Point","coordinates":[47.236821391,34.3687211590001]},"properties":{"Date":"13 June 2025","SiteTargeted":"Kermanshah Ballistic Missile Base Cluster","Status":"Targeted by the IAF"}},{"type":"Feature","geometry":{"type":"Point","coordinates":[50.8987214270001,35.6257819950001]},"properties":{"Date":"13 June 2025","SiteTargeted":"Shahid Modarres Garrison Rocket Production Facility near Bid Kaneh","Status":"Targeted by the IAF"}},{"type":"Feature","geometry":{"type":"Point","coordinates":[46.1171357590001,38.2512742750001]},"properties":{"Date":"13 June 2025","SiteTargeted":"Tabriz Ballistic Missile Base Cluster","Status":"Targeted by the IAF"}},{"type":"Feature","geometry":{"type":"Point","coordinates":[48.2707162900001,35.1859055990001]},"properties":{"Date":"13 June 2025","SiteTargeted":"Subashi radar site","Status":"Targeted by the IAF"}},{"type":"Feature","geometry":{"type":"Point","coordinates":[46.232131231,38.1352323260001]},"properties":{"Date":"13 June 2025","SiteTargeted":"Tabriz International Airport","Status":"Targeted by the IAF"}},{"type":"Feature","geometry":{"type":"Point","coordinates":[51.138976943,35.309346324]},"properties":{"Date":"13 June 2025","SiteTargeted":"Mobile Anti-Aircraft Sytem","Status":"Targeted by Israeli Forces"}},{"type":"Feature","geometry":{"type":"Point","coordinates":[52.513130419,29.603418978]},"properties":{"Date":"13 June 2025","SiteTargeted":"Missile Factory in Shiraz","Status":"Targeted by Israel; Precise location unknown"}},{"type":"Feature","geometry":{"type":"Point","coordinates":[48.746722289,33.891011023]},"properties":{"Date":"13 June 2025","SiteTargeted":"Missile depot IVO Borujerd","Status":"Targeted by Israel; Precise location unknown"}},{"type":"Feature","geometry":{"type":"Point","coordinates":[48.6690349530001,35.2061735940001]},"properties":{"Date":"13 June 2025","SiteTargeted":"Hamadan Air Force Base","Status":"Targeted by Israel; Phantom fleet destroyed"}},{"type":"Feature","geometry":{"type":"Point","coordinates":[51.929569531,27.8298767200001]},"properties":{"Date":"13 June 2025","SiteTargeted":"Dayyer Port - Bushehr","Status":"Targeted by Israel"}},{"type":"Feature","geometry":{"type":"Point","coordinates":[48.1983532770001,33.5654443650001]},"properties":{"Date":"13 June 2025","SiteTargeted":"Khorramabad Ballistic Missile Cluster","Status":"Targeted by Israel"}},{"type":"Feature","geometry":{"type":"Point","coordinates":[51.2913917480001,35.6180527400001]},"properties":{"Date":"14 June 2025","SiteTargeted":"Iranian Air Force HQ","Status":"Targeted by Israel"}},{"type":"Feature","geometry":{"type":"Point","coordinates":[51.3055678710001,35.6104194430001]},"properties":{"Date":"14 June 2025","SiteTargeted":"Basij HQ","Status":"Targeted by Israel"}},{"type":"Feature","geometry":{"type":"Point","coordinates":[50.8733061560001,35.662453971]},"properties":{"Date":"14 June 2025","SiteTargeted":"Military Base IVO Safadasht","Status":"Targeted by Israel"}},{"type":"Feature","geometry":{"type":"Point","coordinates":[48.0215471480001,33.967595601]},"properties":{"Date":"14 June 2025","SiteTargeted":"Military targets IVO Asadabad","Status":"Targeted by Israel"}},{"type":"Feature","geometry":{"type":"Point","coordinates":[48.209624665,33.5588962050001]},"properties":{"Date":"14 June 2025","SiteTargeted":"Khorramabad / Imam Ali Missile Cluster","Status":"Targeted by Israel"}},{"type":"Feature","geometry":{"type":"Point","coordinates":[51.2981524370001,35.6922169470001]},"properties":{"Date":"14 June 2025","SiteTargeted":"Mehrabad Airport in Tehran - 14th Tactical Fighter Squadron (Mig-29 & Su-24)","Status":"Targeted by Israel"}},{"type":"Feature","geometry":{"type":"Point","coordinates":[45.590809264,34.511765532]},"properties":{"Date":"14 June 2025","SiteTargeted":"Military Site IVO Qasr-e Shirin","Status":"Targeted by Israel"}},{"type":"Feature","geometry":{"type":"Point","coordinates":[51.82864196,32.578394234]},"properties":{"Date":"14 June 2025","SiteTargeted":"Isfahan Nuclear Site","Status":"Targeted by Israel"}},{"type":"Feature","geometry":{"type":"Point","coordinates":[48.3718695630001,36.7172526270001]},"properties":{"Date":"14 June 2025","SiteTargeted":"Military Target IVO Zanjan: 216th Armored Brigade munition?","Status":"Targeted by Israel"}},{"type":"Feature","geometry":{"type":"Point","coordinates":[50.990978603,34.883346079]},"properties":{"Date":"14 June 2025","SiteTargeted":"Several elements IVO Fordow nuclear site","Status":"Targeted by Israel"}},{"type":"Feature","geometry":{"type":"Point","coordinates":[47.9675378370001,34.5212069570001]},"properties":{"Date":"14 June 2025","SiteTargeted":"Kangavar Missile Base","Status":"Targeted by Israel"}},{"type":"Feature","geometry":{"type":"Point","coordinates":[49.1070931730001,30.4257415210001]},"properties":{"Date":"14 June 2025","SiteTargeted":"Bahmanshir Port near Abadan","Status":"Targeted by Israel"}},{"type":"Feature","geometry":{"type":"Point","coordinates":[50.0862601050001,36.18374089]},"properties":{"Date":"14 June 2025","SiteTargeted":"Alborz Industrial City near Qazvin","Status":"Targeted by Israel"}},{"type":"Feature","geometry":{"type":"Point","coordinates":[50.2676106580001,37.2249505500001]},"properties":{"Date":"14 June 2025","SiteTargeted":"Chamkhaleh","Status":"Targeted by Israel"}},{"type":"Feature","geometry":{"type":"Point","coordinates":[45.0543777730001,37.5913175530001]},"properties":{"Date":"14 June 2025","SiteTargeted":"Military Base IVO Urmia","Status":"Targeted by Israel"}},{"type":"Feature","geometry":{"type":"Point","coordinates":[52.0546687520001,27.829642382]},"properties":{"Date":"14 June 2025","SiteTargeted":"Kangan Port ","Status":"Targeted by Israel"}},{"type":"Feature","geometry":{"type":"Point","coordinates":[52.5076206580001,29.5848162140001]},"properties":{"Date":"14 June 2025","SiteTargeted":"Targets in Shiraz","Status":"Targeted by Israel"}},{"type":"Feature","geometry":{"type":"Point","coordinates":[48.7570674630001,33.885179242]},"properties":{"Date":"14 June 2025","SiteTargeted":"Targets IVO Borujerd","Status":"Targeted by Israel"}},{"type":"Feature","geometry":{"type":"Point","coordinates":[52.201782081,27.933185999]},"properties":{"Date":"14 June 2025","SiteTargeted":"Fajr Jam Gas Refining Power Station","Status":"Targeted by Israel"}},{"type":"Feature","geometry":{"type":"Point","coordinates":[52.0022207260001,26.8158313800001]},"properties":{"Date":"14 June 2025","SiteTargeted":"South Pars Field","Status":"Phase 14 targeted by Israel"}},{"type":"Feature","geometry":{"type":"Point","coordinates":[57.298548763,25.8569755940001]},"properties":{"Date":"14 June 2025","SiteTargeted":"Jask Oil & Gas Terminal","Status":"Targeted by Israel"}},{"type":"Feature","geometry":{"type":"Point","coordinates":[51.298021476,35.781242181]},"properties":{"Date":"14 June 2025","SiteTargeted":"Shahran Oil Depot in Tehran","Status":"Targeted by Israel"}},{"type":"Feature","geometry":{"type":"Point","coordinates":[46.1586181000001,38.057675283]},"properties":{"Date":"14 June 2025","SiteTargeted":"Tabriz Oil Refinery","Status":"Targeted by Israel"}},{"type":"Feature","geometry":{"type":"Point","coordinates":[51.493274033,35.783453798]},"properties":{"Date":"14 June 2025","SiteTargeted":"Malek Ashtar University in Tehran","Status":"Targeted by Israel"}},{"type":"Feature","geometry":{"type":"Point","coordinates":[51.4876843070001,35.792006685]},"properties":{"Date":"14 June 2025","SiteTargeted":"Target in the Aghdasieh neighborhood in Tehran","Status":"Targeted by Israel"}},{"type":"Feature","geometry":{"type":"Point","coordinates":[51.481075316,35.791694449]},"properties":{"Date":"14 June 2025","SiteTargeted":"Target in the Nobonyad area in Tehran","Status":"Targeted by Israel"}},{"type":"Feature","geometry":{"type":"Point","coordinates":[51.508012159,35.7359571050001]},"properties":{"Date":"14 June 2025","SiteTargeted":"Target in Narmak neighborhood in Tehran","Status":"Targeted by Israel"}},{"type":"Feature","geometry":{"type":"Point","coordinates":[51.3289019920001,35.7738637030001]},"properties":{"Date":"14 June 2025","SiteTargeted":"Target in Almahdi neighborhood in Tehran","Status":"Targeted by Israel"}},{"type":"Feature","geometry":{"type":"Point","coordinates":[48.0748701790001,34.813317311]},"properties":{"Date":"15 June 2025","SiteTargeted":"Ballistic missiles in TELs - Cargo trucks","Status":"Targeted by Israel"}},{"type":"Feature","geometry":{"type":"Point","coordinates":[51.497794813,35.7870846970001]},"properties":{"Date":"14 June 2025","SiteTargeted":"Target near the Malek Ashtar University in Tehran","Status":"Targeted by Israel"}},{"type":"Feature","geometry":{"type":"Point","coordinates":[47.243976004,34.354966792]},"properties":{"Date":"14 June 2025","SiteTargeted":"Target near Kermanshah","Status":"Targeted by Israel"}},{"type":"Feature","geometry":{"type":"Point","coordinates":[48.0431888260001,34.6234611020001]},"properties":{"Date":"14 June 2025","SiteTargeted":"Military Convoy ","Status":"Targeted by Israel"}},{"type":"Feature","geometry":{"type":"Point","coordinates":[46.198660165,38.0575533590001]},"properties":{"Date":"14 June 2025","SiteTargeted":"Target near Tabriz","Status":"Targeted by Israel"}},{"type":"Feature","geometry":{"type":"Point","coordinates":[47.2159342140001,34.3313155480001]},"properties":{"Date":"14 June 2025","SiteTargeted":"Numerous targets IVO Kermanshah","Status":"Targeted by Israel"}},{"type":"Feature","geometry":{"type":"Point","coordinates":[51.338013749,35.686078142]},"properties":{"Date":"14 June 2025","SiteTargeted":"Fighter jets hangar at Mehrabad airbase in Tehran","Status":"Targeted by Israel"}},{"type":"Feature","geometry":{"type":"Point","coordinates":[51.2056320240001,35.6781135620001]},"properties":{"Date":"14 June 2025","SiteTargeted":"Possible radar site in Tehran","Status":"Targeted by Israel"}},{"type":"Feature","geometry":{"type":"Point","coordinates":[50.9561167350001,35.7675611020001]},"properties":{"Date":"13 June 2025","SiteTargeted":"IRGC Base in Mohammad Shahr near Karaj","Status":"Targeted by Israel"}},{"type":"Feature","geometry":{"type":"Point","coordinates":[51.4243545590001,35.5423928930001]},"properties":{"Date":"15 June 2025","SiteTargeted":"Tehran Oil Refinery","Status":"Targeted by Israel"}},{"type":"Feature","geometry":{"type":"Point","coordinates":[51.593087385,32.7193669760001]},"properties":{"Date":"15 June 2025","SiteTargeted":"Military Drone Factory in Isfahan","Status":"Targeted by Israel"}},{"type":"Feature","geometry":{"type":"Point","coordinates":[51.7388740060001,32.653635615]},"properties":{"Date":"15 June 2025","SiteTargeted":"Multiple targets struck in Isfahan","Status":"Targeted by Israel"}},{"type":"Feature","geometry":{"type":"Point","coordinates":[59.6406504380001,36.230890329]},"properties":{"Date":"15 June 2025","SiteTargeted":"IAF strike on an Iranian aerial refueling aircraft at Mashhad airport some 2,300 kilometers from Israel.","Status":"Targeted by Israel"}},{"type":"Feature","geometry":{"type":"Point","coordinates":[51.080865998,35.728217633]},"properties":{"Date":"15 June 2025","SiteTargeted":"IDF strike on Ghadir / Garmdareh Military Base","Status":"Targeted by Israel"}},{"type":"Feature","geometry":{"type":"Point","coordinates":[51.8243195700001,32.5785251950001]},"properties":{"Date":"15 June 2025","SiteTargeted":"Structure destroyed in Isfahan Nuclear Site","Status":"Targetd by Israel"}},{"type":"Feature","geometry":{"type":"Point","coordinates":[51.8249656450001,32.577486236]},"properties":{"Date":"15 June 2025","SiteTargeted":"Structure destroyed in Isfahan Nuclear Site","Status":"Targeted by Israel"}},{"type":"Feature","geometry":{"type":"Point","coordinates":[51.82782933,32.57904904]},"properties":{"Date":"15 June 2025","SiteTargeted":"Structure destroyed in Isfahan Nuclear Site","Status":"Targeted by Israel"}},{"type":"Feature","geometry":{"type":"Point","coordinates":[50.903366616,35.6265951770001]},"properties":{"Date":"15 June 2025","SiteTargeted":"Shahid Modarres Garrison rocket production facility near Bid Kaneh","Status":"Targeted by Israel"}},{"type":"Feature","geometry":{"type":"Point","coordinates":[50.9026321850001,35.6243419460001]},"properties":{"Date":"15 June 2025","SiteTargeted":"Shahid Modarres Garrison rocket production facility near Bid Kaneh","Status":"Targeted by Israel"}},{"type":"Feature","geometry":{"type":"Point","coordinates":[49.2396697710001,34.370351268]},"properties":{"Date":"15 June 2025","SiteTargeted":"Arak nuclear site","Status":"Allegedly targeted by Israel"}},{"type":"Feature","geometry":{"type":"Point","coordinates":[51.7207823530001,33.730467145]},"properties":{"Date":"15 June 2025","SiteTargeted":"Structure destroyed in Natanz nuclear site","Status":"Targeted by Israel"}},{"type":"Feature","geometry":{"type":"Point","coordinates":[51.721075226,33.728563057]},"properties":{"Date":"15 June 2025","SiteTargeted":"Structure destroyed in Natanz nuclear site","Status":"Targeted by Israel"}},{"type":"Feature","geometry":{"type":"Point","coordinates":[51.7238308670001,33.728372071]},"properties":{"Date":"15 June 2025","SiteTargeted":"Structure destroyed in Natanz nuclear site","Status":"Targeted by Israel"}},{"type":"Feature","geometry":{"type":"Point","coordinates":[51.381186691,35.6452694760001]},"properties":{"Date":"15 June 2025","SiteTargeted":"Iranian Intel MOD buidling, Iranian Nuclear Agency HQ, IRGC HQ, IRGC Navy HQ","Status":"Multiple targets struck by Israel"}},{"type":"Feature","geometry":{"type":"Point","coordinates":[51.7519814600001,35.53251099]},"properties":{"Date":"15 June 2025","SiteTargeted":"Parchin Military Base","Status":"Targeted by Israel"}},{"type":"Feature","geometry":{"type":"Point","coordinates":[51.724467389,33.726189989]},"properties":{"Date":"15 June 2025","SiteTargeted":"Structure destroyed in Natanz nuclear site","Status":"Targeted by Israel"}},{"type":"Feature","geometry":{"type":"Point","coordinates":[51.7216319280001,33.7252109290001]},"properties":{"Date":"15 June 2025","SiteTargeted":"Structure destroyed in Natanz nuclear site","Status":"Targeted by Israel"}},{"type":"Feature","geometry":{"type":"Point","coordinates":[51.4090001370001,35.7863301850001]},"properties":{"Date":"16 June 2025","SiteTargeted":"Building of IRIB in Tehran's District 3","Status":"Targeted by Israel"}},{"type":"Feature","geometry":{"type":"Point","coordinates":[48.7322176640001,31.273094198]},"properties":{"Date":"16 June 2025","SiteTargeted":"Ahwaz Steel Company (KSC)","Status":"Targeted by Israel"}},{"type":"Feature","geometry":{"type":"Point","coordinates":[51.324338723,35.6863842500001]},"properties":{"Date":"16 June 2025","SiteTargeted":"Two IRIAF F-14A Tomcats at Mehrabad Airport","Status":"Targeted by Israel"}},{"type":"Feature","geometry":{"type":"Point","coordinates":[51.3270932300001,35.696556623]},"properties":{"Date":"16 June 2025","SiteTargeted":"Iran Helicopter Support & Renewal Company","Status":"Targeted by Israel"}},{"type":"Feature","geometry":{"type":"Point","coordinates":[47.102971789,34.352978486]},"properties":{"Date":"16 June 2025","SiteTargeted":"Kermanshah Oil Refining Company","Status":"Targeted by Israel"}},{"type":"Feature","geometry":{"type":"Point","coordinates":[48.493834415,36.6741190920001]},"properties":{"Date":"16 June 2025","SiteTargeted":"IRGC Base in Zanjan","Status":"Targeted by Israel"}},{"type":"Feature","geometry":{"type":"Point","coordinates":[45.772224152,38.434547206]},"properties":{"Date":"16 June 2025","SiteTargeted":"Unknown target(s) IVO Marand","Status":"Targeted by Israel"}},{"type":"Feature","geometry":{"type":"Point","coordinates":[50.7198212640001,35.3415895430001]},"properties":{"Date":"16 June 2025","SiteTargeted":"Raad ADS on the Saveh-Tehran Highway","Status":"Targeted by Israel"}},{"type":"Feature","geometry":{"type":"Point","coordinates":[51.1820574930001,35.7260728910001]},"properties":{"Date":"16 June 2025","SiteTargeted":"Target in Chitgar, west Tehran","Status":"Targeted by Israel"}},{"type":"Feature","geometry":{"type":"Point","coordinates":[48.66680991,31.3215063120001]},"properties":{"Date":"17 June 2025","SiteTargeted":"IRGC & Iranian Army targets","Status":"Targeted by Israel"}},{"type":"Feature","geometry":{"type":"Point","coordinates":[50.847751816,28.908839329]},"properties":{"Date":"16 June 2025","SiteTargeted":"Unknown targets IVO Bushehr","Status":"Targeted by Israel"}},{"type":"Feature","geometry":{"type":"Point","coordinates":[51.4253936800001,35.5443672220001]},"properties":{"Date":"17 June 2025","SiteTargeted":"Tehran Oil Refinery south of Rey","Status":"Targeted by Israel"}},{"type":"Feature","geometry":{"type":"Point","coordinates":[51.793715035,32.6057474190001]},"properties":{"Date":"17 June 2025","SiteTargeted":"Structures in Isfahan","Status":"Targeted by Israel"}},{"type":"Feature","geometry":{"type":"Point","coordinates":[51.437068034,32.698914847]},"properties":{"Date":"17 June 2025","SiteTargeted":"Missile Base - Isfahan Cluster","Status":"Targeted by Israel"}},{"type":"Feature","geometry":{"type":"Point","coordinates":[51.42038288,32.6845688350001]},"properties":{"Date":"17 June 2025","SiteTargeted":"IRGC Infrastructure","Status":"Targeted by Israel"}},{"type":"Feature","geometry":{"type":"Point","coordinates":[51.5338996780001,32.8750914570001]},"properties":{"Date":"17 June 2025","SiteTargeted":"Structure IVO Shahin Shahr","Status":"Targeted by Israel"}},{"type":"Feature","geometry":{"type":"Point","coordinates":[51.429504368,32.6924418450001]},"properties":{"Date":"17 June 2025","SiteTargeted":"Missile Base - Isfahan Cluster","Status":"Targeted by Israel"}},{"type":"Feature","geometry":{"type":"Point","coordinates":[50.0261686090001,36.2661583030001]},"properties":{"Date":"17 June 2025","SiteTargeted":"16th Armored Regiment of the Iranian Army","Status":"Targeted by Israel"}},{"type":"Feature","geometry":{"type":"Point","coordinates":[51.3909535880001,35.7666966290001]},"properties":{"Date":"17 June 2025","SiteTargeted":"Infrastructures in Tehran","Status":"Targeted by Israel"}},{"type":"Feature","geometry":{"type":"Point","coordinates":[51.4387078460001,33.978900186]},"properties":{"Date":"17 June 2025","SiteTargeted":"Kashan Police HQ","Status":"Targeted by Israel"}},{"type":"Feature","geometry":{"type":"Point","coordinates":[52.4053393780001,33.370539766]},"properties":{"Date":"17 June 2025","SiteTargeted":"IRGC Base IVO Ardestan","Status":"Targeted by Israel"}},{"type":"Feature","geometry":{"type":"Point","coordinates":[52.5167544550001,29.634118191]},"properties":{"Date":"17 June 2025","SiteTargeted":"Infrastructure IVO Shiraz","Status":"Targeted by Israel"}},{"type":"Feature","geometry":{"type":"Point","coordinates":[50.8579593360001,35.909062062]},"properties":{"Date":"18 June 2025","SiteTargeted":"Centrifuge production site in Karaj","Status":"Targeted by Israel"}},{"type":"Feature","geometry":{"type":"Point","coordinates":[50.85742406,35.908548486]},"properties":{"Date":"18 June 2025","SiteTargeted":"Centrifuge production site in Karaj","Status":"Targeted by Israel"}},{"type":"Feature","geometry":{"type":"Point","coordinates":[50.8571636550001,35.908273615]},"properties":{"Date":"18 June 2025","SiteTargeted":"Centrifuge production site in Karaj","Status":"Targeted by Israel"}},{"type":"Feature","geometry":{"type":"Point","coordinates":[48.8257134510001,34.288117146]},"properties":{"Date":"17 June 2025","SiteTargeted":"Infrastructure IVO Malayer","Status":"Targeted by Israel"}},{"type":"Feature","geometry":{"type":"Point","coordinates":[51.587353722,35.7531353750001]},"properties":{"Date":"18 June 2025","SiteTargeted":"Imam Hossein University","Status":"Targeted by Israel"}},{"type":"Feature","geometry":{"type":"Point","coordinates":[51.609940631,35.6943038920001]},"properties":{"Date":"18 June 2025","SiteTargeted":"Khojir Missile Production Complex","Status":"Targeted by Israel"}},{"type":"Feature","geometry":{"type":"Point","coordinates":[51.6093059820001,35.6912686110001]},"properties":{"Date":"18 June 2025","SiteTargeted":"Khojir Missile Production Complex","Status":"Targeted by Israel"}},{"type":"Feature","geometry":{"type":"Point","coordinates":[46.1516518080001,38.2588595]},"properties":{"Date":"18 June 2025","SiteTargeted":"Structure in the Tabriz Missile Base Cluster","Status":"Targeted by Israel"}},{"type":"Feature","geometry":{"type":"Point","coordinates":[46.1519122120001,38.2588595]},"properties":{"Date":"18 June 2025","SiteTargeted":"Structure in the Tabriz Missile Base Cluster","Status":"Targeted by Israel"}},{"type":"Feature","geometry":{"type":"Point","coordinates":[46.151897745,38.258512293]},"properties":{"Date":"18 June 2025","SiteTargeted":"Structure in the Tabriz Missile Base Cluster","Status":"Targeted by Israel"}},{"type":"Feature","geometry":{"type":"Point","coordinates":[46.151644574,38.258490593]},"properties":{"Date":"18 June 2025","SiteTargeted":"Structure in the Tabriz Missile Base Cluster","Status":"Targeted by Israel"}},{"type":"Feature","geometry":{"type":"Point","coordinates":[46.1510369630001,38.259025869]},"properties":{"Date":"18 June 2025","SiteTargeted":"Structure in the Tabriz Missile Base Cluster","Status":"Targeted by Israel"}},{"type":"Feature","geometry":{"type":"Point","coordinates":[46.150957395,38.2585050600001]},"properties":{"Date":"18 June 2025","SiteTargeted":"Structure in the Tabriz Missile Base Cluster","Status":"Targeted by Israel"}},{"type":"Feature","geometry":{"type":"Point","coordinates":[46.1503787180001,38.2581144530001]},"properties":{"Date":"18 June 2025","SiteTargeted":"Structure in the Tabriz Missile Base Cluster","Status":"Targeted by Israel"}},{"type":"Feature","geometry":{"type":"Point","coordinates":[46.148888625,38.2578178810001]},"properties":{"Date":"18 June 2025","SiteTargeted":"Structure in the Tabriz Missile Base Cluster","Status":"Targeted by Israel"}},{"type":"Feature","geometry":{"type":"Point","coordinates":[46.1488813920001,38.2575647100001]},"properties":{"Date":"18 June 2025","SiteTargeted":"Structure in the Tabriz Missile Base Cluster","Status":"Targeted by Israel"}},{"type":"Feature","geometry":{"type":"Point","coordinates":[46.148143578,38.257333239]},"properties":{"Date":"18 June 2025","SiteTargeted":"Structure in the Tabriz Missile Base Cluster","Status":"Targeted by Israel"}},{"type":"Feature","geometry":{"type":"Point","coordinates":[46.142187726,38.2483556080001]},"properties":{"Date":"18 June 2025","SiteTargeted":"Structure in the Tabriz Missile Base Cluster","Status":"Targeted by Israel"}},{"type":"Feature","geometry":{"type":"Point","coordinates":[46.140143369,38.2480599410001]},"properties":{"Date":"18 June 2025","SiteTargeted":"Structure in the Tabriz Missile Base Cluster","Status":"Targeted by Israel"}},{"type":"Feature","geometry":{"type":"Point","coordinates":[46.1451778590001,38.249629602]},"properties":{"Date":"18 June 2025","SiteTargeted":"Structure in the Tabriz Missile Base Cluster","Status":"Targeted by Israel"}},{"type":"Feature","geometry":{"type":"Point","coordinates":[46.1377417670001,38.2521770650001]},"properties":{"Date":"18 June 2025","SiteTargeted":"Structure in the Tabriz Missile Base Cluster","Status":"Targeted by Israel"}},{"type":"Feature","geometry":{"type":"Point","coordinates":[46.1281912600001,38.251699672]},"properties":{"Date":"18 June 2025","SiteTargeted":"Structure in the Tabriz Missile Base Cluster","Status":"Targeted by Israel"}},{"type":"Feature","geometry":{"type":"Point","coordinates":[46.123846944,38.253006498]},"properties":{"Date":"18 June 2025","SiteTargeted":"Structure in the Tabriz Missile Base Cluster","Status":"Targeted by Israel"}},{"type":"Feature","geometry":{"type":"Point","coordinates":[46.119661567,38.2515760530001]},"properties":{"Date":"18 June 2025","SiteTargeted":"Structure in the Tabriz Missile Base Cluster","Status":"Targeted by Israel"}},{"type":"Feature","geometry":{"type":"Point","coordinates":[46.127635567,38.2471491490001]},"properties":{"Date":"18 June 2025","SiteTargeted":"Structure in the Tabriz Missile Base Cluster","Status":"Targeted by Israel"}},{"type":"Feature","geometry":{"type":"Point","coordinates":[46.126717091,38.246962491]},"properties":{"Date":"18 June 2025","SiteTargeted":"Structure in the Tabriz Missile Base Cluster","Status":"Targeted by Israel"}},{"type":"Feature","geometry":{"type":"Point","coordinates":[48.394755677,32.4412656220001]},"properties":{"Date":"18 June 2025","SiteTargeted":"Possible Arash-2/Shahed-136 Drone system at Dezful Airport","Status":"Targeted by Israel"}},{"type":"Feature","geometry":{"type":"Point","coordinates":[48.394584389,32.441325804]},"properties":{"Date":"18 June 2025","SiteTargeted":"Possible Arash-2/Shahed-136 Drone system at Dezful Airport","Status":"Targeted by Israel"}},{"type":"Feature","geometry":{"type":"Point","coordinates":[48.39441773,32.441376727]},"properties":{"Date":"18 June 2025","SiteTargeted":"Possible Arash-2/Shahed-136 Drone system at Dezful Airport","Status":"Targeted by Israel"}},{"type":"Feature","geometry":{"type":"Point","coordinates":[48.394237183,32.4414322800001]},"properties":{"Date":"18 June 2025","SiteTargeted":"Possible Arash-2/Shahed-136 Drone system at Dezful Airport","Status":"Targeted by Israel"}},{"type":"Feature","geometry":{"type":"Point","coordinates":[48.3949315950001,32.4412193270001]},"properties":{"Date":"18 June 2025","SiteTargeted":"Possible Arash-2/Shahed-136 Drone system at Dezful Airport","Status":"Targeted by Israel"}},{"type":"Feature","geometry":{"type":"Point","coordinates":[47.2303881560001,34.3509552020001]},"properties":{"Date":"15 June 2025","SiteTargeted":"IRGC Missile Base east of Kermanshah","Status":"Targeted by Israel"}},{"type":"Feature","geometry":{"type":"Point","coordinates":[47.230730733,34.350885761]},"properties":{"Date":"15 June 2025","SiteTargeted":"IRGC Missile Base east of Kermanshah","Status":"Targeted by Israel"}},{"type":"Feature","geometry":{"type":"Point","coordinates":[47.233938918,34.3509274260001]},"properties":{"Date":"15 June 2025","SiteTargeted":"IRGC Missile Base east of Kermanshah","Status":"Targeted by Israel"}},{"type":"Feature","geometry":{"type":"Point","coordinates":[47.2287780780001,34.360527894]},"properties":{"Date":"15 June 2025","SiteTargeted":"Structure in Kermanshah Missile Base Cluster","Status":"Targeted by Israel"}},{"type":"Feature","geometry":{"type":"Point","coordinates":[46.2535516990001,38.1232655270001]},"properties":{"Date":"13 June 2025","SiteTargeted":"Taxyway at Tabriz Airport","Status":"Targeted by Israel"}},{"type":"Feature","geometry":{"type":"Point","coordinates":[46.245273658,38.1280943840001]},"properties":{"Date":"13 June 2025","SiteTargeted":"Taxyway at Tabriz Airport","Status":"Targeted by Israel"}},{"type":"Feature","geometry":{"type":"Point","coordinates":[46.248291694,38.128525532]},"properties":{"Date":"13 June 2025","SiteTargeted":"Taxyway at Tabriz Airport","Status":"Targeted by Israel"}},{"type":"Feature","geometry":{"type":"Point","coordinates":[46.2353626450001,38.133957996]},"properties":{"Date":"13 June 2025","SiteTargeted":"Main Runway at Tabriz Airport","Status":"Targeted by Israel"}},{"type":"Feature","geometry":{"type":"Point","coordinates":[47.232128817,34.350432078]},"properties":{"Date":"16 June 2025","SiteTargeted":"Structure at Kermanshah Missile Base Cluster","Status":"Targeted by Israel"}},{"type":"Feature","geometry":{"type":"Point","coordinates":[47.236422878,34.351302408]},"properties":{"Date":"16 June 2025","SiteTargeted":"Structure at Kermanshah Missile Base Cluster","Status":"Targeted by Israel"}},{"type":"Feature","geometry":{"type":"Point","coordinates":[47.2361473350001,34.3510002]},"properties":{"Date":"16 June 2025","SiteTargeted":"Structure at Kermanshah Missile Base Cluster","Status":"Targeted by Israel"}},{"type":"Feature","geometry":{"type":"Point","coordinates":[47.232128527,34.352818831]},"properties":{"Date":"16 June 2025","SiteTargeted":"Structure at Kermanshah Missile Base Cluster","Status":"Targeted by Israel"}},{"type":"Feature","geometry":{"type":"Point","coordinates":[47.233379916,34.353498777]},"properties":{"Date":"16 June 2025","SiteTargeted":"Structure at Kermanshah Missile Base Cluster","Status":"Targeted by Israel"}},{"type":"Feature","geometry":{"type":"Point","coordinates":[47.2328157060001,34.353050302]},"properties":{"Date":"16 June 2025","SiteTargeted":"Structure at Kermanshah Missile Base Cluster","Status":"Targeted by Israel"}},{"type":"Feature","geometry":{"type":"Point","coordinates":[47.235437684,34.3589455740001]},"properties":{"Date":"16 June 2025","SiteTargeted":"Structure at Kermanshah Missile Base Cluster","Status":"Targeted by Israel"}},{"type":"Feature","geometry":{"type":"Point","coordinates":[47.2274557110001,34.358844305]},"properties":{"Date":"16 June 2025","SiteTargeted":"Structure at Kermanshah Missile Base Cluster","Status":"Targeted by Israel"}},{"type":"Feature","geometry":{"type":"Point","coordinates":[47.228634765,34.358446465]},"properties":{"Date":"16 June 2025","SiteTargeted":"Structure at Kermanshah Missile Base Cluster","Status":"Targeted by Israel"}},{"type":"Feature","geometry":{"type":"Point","coordinates":[47.228025234,34.362603542]},"properties":{"Date":"16 June 2025","SiteTargeted":"Structure at Kermanshah Missile Base Cluster","Status":"Targeted by Israel"}},{"type":"Feature","geometry":{"type":"Point","coordinates":[47.2314687670001,34.363357772]},"properties":{"Date":"16 June 2025","SiteTargeted":"Structure at Kermanshah Missile Base Cluster","Status":"Targeted by Israel"}},{"type":"Feature","geometry":{"type":"Point","coordinates":[47.230857486,34.3631659970001]},"properties":{"Date":"16 June 2025","SiteTargeted":"Structure at Kermanshah Missile Base Cluster","Status":"Targeted by Israel"}},{"type":"Feature","geometry":{"type":"Point","coordinates":[47.2439940450001,34.363477631]},"properties":{"Date":"16 June 2025","SiteTargeted":"Structure at Kermanshah Missile Base Cluster","Status":"Targeted by Israel"}},{"type":"Feature","geometry":{"type":"Point","coordinates":[47.2431670170001,34.3637053630001]},"properties":{"Date":"16 June 2025","SiteTargeted":"Structure at Kermanshah Missile Base Cluster","Status":"Targeted by Israel"}},{"type":"Feature","geometry":{"type":"Point","coordinates":[47.2462362160001,34.363743411]},"properties":{"Date":"16 June 2025","SiteTargeted":"Structure at Kermanshah Missile Base Cluster","Status":"Targeted by Israel"}},{"type":"Feature","geometry":{"type":"Point","coordinates":[47.25072678,34.355219923]},"properties":{"Date":"16 June 2025","SiteTargeted":"Structure at Kermanshah Missile Base Cluster","Status":"Targeted by Israel"}},{"type":"Feature","geometry":{"type":"Point","coordinates":[47.2503171060001,34.3551613980001]},"properties":{"Date":"16 June 2025","SiteTargeted":"Structure at Kermanshah Missile Base Cluster","Status":"Targeted by Israel"}},{"type":"Feature","geometry":{"type":"Point","coordinates":[47.2499074310001,34.3551175040001]},"properties":{"Date":"16 June 2025","SiteTargeted":"Structure at Kermanshah Missile Base Cluster","Status":"Targeted by Israel"}},{"type":"Feature","geometry":{"type":"Point","coordinates":[47.249468494,34.3549711920001]},"properties":{"Date":"16 June 2025","SiteTargeted":"Structure at Kermanshah Missile Base Cluster","Status":"Targeted by Israel"}},{"type":"Feature","geometry":{"type":"Point","coordinates":[47.248985663,34.3548541420001]},"properties":{"Date":"16 June 2025","SiteTargeted":"Structure at Kermanshah Missile Base Cluster","Status":"Targeted by Israel"}},{"type":"Feature","geometry":{"type":"Point","coordinates":[47.244391453,34.3546481340001]},"properties":{"Date":"16 June 2025","SiteTargeted":"Structure at Kermanshah Missile Base Cluster","Status":"Targeted by Israel"}},{"type":"Feature","geometry":{"type":"Point","coordinates":[47.244728557,34.3545732220001]},"properties":{"Date":"16 June 2025","SiteTargeted":"Structure at Kermanshah Missile Base Cluster","Status":"Targeted by Israel"}},{"type":"Feature","geometry":{"type":"Point","coordinates":[47.2451499370001,34.3545732220001]},"properties":{"Date":"16 June 2025","SiteTargeted":"Structure at Kermanshah Missile Base Cluster","Status":"Targeted by Israel"}},{"type":"Feature","geometry":{"type":"Point","coordinates":[47.2436423340001,34.3548073220001]},"properties":{"Date":"16 June 2025","SiteTargeted":"Structure at Kermanshah Missile Base Cluster","Status":"Targeted by Israel"}},{"type":"Feature","geometry":{"type":"Point","coordinates":[47.241423067,34.3555002570001]},"properties":{"Date":"16 June 2025","SiteTargeted":"Structure at Kermanshah Missile Base Cluster","Status":"Targeted by Israel"}},{"type":"Feature","geometry":{"type":"Point","coordinates":[47.240542852,34.355940365]},"properties":{"Date":"16 June 2025","SiteTargeted":"Structure at Kermanshah Missile Base Cluster","Status":"Targeted by Israel"}},{"type":"Feature","geometry":{"type":"Point","coordinates":[47.2401963840001,34.3561276450001]},"properties":{"Date":"16 June 2025","SiteTargeted":"Structure at Kermanshah Missile Base Cluster","Status":"Targeted by Israel"}},{"type":"Feature","geometry":{"type":"Point","coordinates":[47.2398686440001,34.356249377]},"properties":{"Date":"16 June 2025","SiteTargeted":"Structure at Kermanshah Missile Base Cluster","Status":"Targeted by Israel"}},{"type":"Feature","geometry":{"type":"Point","coordinates":[47.2393910810001,34.3565115690001]},"properties":{"Date":"16 June 2025","SiteTargeted":"Structure at Kermanshah Missile Base Cluster","Status":"Targeted by Israel"}},{"type":"Feature","geometry":{"type":"Point","coordinates":[47.239053977,34.356726941]},"properties":{"Date":"16 June 2025","SiteTargeted":"Structure at Kermanshah Missile Base Cluster","Status":"Targeted by Israel"}},{"type":"Feature","geometry":{"type":"Point","coordinates":[47.2422939190001,34.354208026]},"properties":{"Date":"16 June 2025","SiteTargeted":"Structure at Kermanshah Missile Base Cluster","Status":"Targeted by Israel"}},{"type":"Feature","geometry":{"type":"Point","coordinates":[47.2416665310001,34.3543859420001]},"properties":{"Date":"16 June 2025","SiteTargeted":"Structure at Kermanshah Missile Base Cluster","Status":"Targeted by Israel"}},{"type":"Feature","geometry":{"type":"Point","coordinates":[47.2409080480001,34.354741774]},"properties":{"Date":"16 June 2025","SiteTargeted":"Structure at Kermanshah Missile Base Cluster","Status":"Targeted by Israel"}},{"type":"Feature","geometry":{"type":"Point","coordinates":[48.2160375600001,33.5528283900001]},"properties":{"Date":"15 June 2025","SiteTargeted":"Structure at Khorramabad Missile Base Cluster","Status":"Targeted by Israel"}},{"type":"Feature","geometry":{"type":"Point","coordinates":[48.21655796,33.552825935]},"properties":{"Date":"15 June 2025","SiteTargeted":"Structure at Khorramabad Missile Base Cluster","Status":"Targeted by Israel"}},{"type":"Feature","geometry":{"type":"Point","coordinates":[48.2165383220001,33.552465092]},"properties":{"Date":"15 June 2025","SiteTargeted":"Structure at Khorramabad Missile Base Cluster","Status":"Targeted by Israel"}},{"type":"Feature","geometry":{"type":"Point","coordinates":[48.216040015,33.552465092]},"properties":{"Date":"15 June 2025","SiteTargeted":"Structure at Khorramabad Missile Base Cluster","Status":"Targeted by Israel"}},{"type":"Feature","geometry":{"type":"Point","coordinates":[48.2152569610001,33.556731386]},"properties":{"Date":"15 June 2025","SiteTargeted":"Structure at Khorramabad Missile Base Cluster","Status":"Targeted by Israel"}},{"type":"Feature","geometry":{"type":"Point","coordinates":[48.2153769350001,33.5635872510001]},"properties":{"Date":"15 June 2025","SiteTargeted":"Structure at Khorramabad Missile Base Cluster","Status":"Targeted by Israel"}},{"type":"Feature","geometry":{"type":"Point","coordinates":[48.2111003620001,33.5521229660001]},"properties":{"Date":"15 June 2025","SiteTargeted":"Structure at Khorramabad Missile Base Cluster","Status":"Targeted by Israel"}},{"type":"Feature","geometry":{"type":"Point","coordinates":[48.2107091410001,33.5518353040001]},"properties":{"Date":"15 June 2025","SiteTargeted":"Structure at Khorramabad Missile Base Cluster","Status":"Targeted by Israel"}},{"type":"Feature","geometry":{"type":"Point","coordinates":[48.2124044290001,33.5518161270001]},"properties":{"Date":"15 June 2025","SiteTargeted":"Structure at Khorramabad Missile Base Cluster","Status":"Targeted by Israel"}},{"type":"Feature","geometry":{"type":"Point","coordinates":[48.1914779860001,33.553292791]},"properties":{"Date":"15 June 2025","SiteTargeted":"Structure at Khorramabad Missile Base Cluster","Status":"Targeted by Israel"}},{"type":"Feature","geometry":{"type":"Point","coordinates":[48.1880906330001,33.557070137]},"properties":{"Date":"15 June 2025","SiteTargeted":"Structure at Khorramabad Missile Base Cluster","Status":"Targeted by Israel"}},{"type":"Feature","geometry":{"type":"Point","coordinates":[48.1805161500001,33.5627012530001]},"properties":{"Date":"15 June 2025","SiteTargeted":"Structure at Khorramabad Missile Base Cluster","Status":"Targeted by Israel"}},{"type":"Feature","geometry":{"type":"Point","coordinates":[50.902508744,35.6238508610001]},"properties":{"Date":"15 June 2025","SiteTargeted":"Structure at the Bid Kaneh Base","Status":"Targeted by Israel"}},{"type":"Feature","geometry":{"type":"Point","coordinates":[50.8995795690001,35.6259881930001]},"properties":{"Date":"15 June 2025","SiteTargeted":"Structure at the Bid Kaneh Base","Status":"Targeted by Israel"}},{"type":"Feature","geometry":{"type":"Point","coordinates":[50.894195648,35.6215608970001]},"properties":{"Date":"15 June 2025","SiteTargeted":"Structure at the Bid Kaneh Base","Status":"Targeted by Israel"}},{"type":"Feature","geometry":{"type":"Point","coordinates":[50.8948009360001,35.621500967]},"properties":{"Date":"15 June 2025","SiteTargeted":"Structure at the Bid Kaneh Base","Status":"Targeted by Israel"}},{"type":"Feature","geometry":{"type":"Point","coordinates":[52.4898141790001,29.4636068730001]},"properties":{"Date":"15 June 2025","SiteTargeted":"Structure at the Shiraz Missile Base Cluster","Status":"Targeted by Israel"}},{"type":"Feature","geometry":{"type":"Point","coordinates":[52.5916268930001,29.4541266590001]},"properties":{"Date":"16 June 2025","SiteTargeted":"Achtronic Factory IVO Shiraz","Status":"Targeted by Israel"}},{"type":"Feature","geometry":{"type":"Point","coordinates":[47.160955648,34.3548657530001]},"properties":{"Date":"18 June 2025","SiteTargeted":"Iranian AH-1 Cobra Helicopter","Status":"Targeted by Israel"}},{"type":"Feature","geometry":{"type":"Point","coordinates":[47.1613571760001,34.354650007]},"properties":{"Date":"18 June 2025","SiteTargeted":"Iranian AH-1 Cobra Helicopter","Status":"Targeted by Israel"}},{"type":"Feature","geometry":{"type":"Point","coordinates":[47.1618965420001,34.354685965]},"properties":{"Date":"18 June 2025","SiteTargeted":"Iranian AH-1 Cobra Helicopter","Status":"Targeted by Israel"}},{"type":"Feature","geometry":{"type":"Point","coordinates":[47.1603203940001,34.3542904290001]},"properties":{"Date":"18 June 2025","SiteTargeted":"Iranian AH-1 Cobra Helicopter","Status":"Targeted by Israel"}},{"type":"Feature","geometry":{"type":"Point","coordinates":[47.1606380210001,34.353972803]},"properties":{"Date":"18 June 2025","SiteTargeted":"Iranian AH-1 Cobra Helicopter","Status":"Targeted by Israel"}},{"type":"Feature","geometry":{"type":"Point","coordinates":[47.1606380210001,34.353559289]},"properties":{"Date":"18 June 2025","SiteTargeted":"Iranian AH-1 Cobra Helicopter","Status":"Targeted by Israel"}},{"type":"Feature","geometry":{"type":"Point","coordinates":[47.1611474220001,34.353565282]},"properties":{"Date":"18 June 2025","SiteTargeted":"Iranian AH-1 Cobra Helicopter","Status":"Targeted by Israel"}},{"type":"Feature","geometry":{"type":"Point","coordinates":[47.1616088800001,34.3533555280001]},"properties":{"Date":"18 June 2025","SiteTargeted":"Iranian AH-1 Cobra Helicopter","Status":"Targeted by Israel"}},{"type":"Feature","geometry":{"type":"Point","coordinates":[47.1586260660001,34.351493157]},"properties":{"Date":"18 June 2025","SiteTargeted":"Iranian AH-1 Cobra Helicopter","Status":"Targeted by Israel"}},{"type":"Feature","geometry":{"type":"Point","coordinates":[47.159500558,34.351842187]},"properties":{"Date":"18 June 2025","SiteTargeted":"Iranian AH-1 Cobra Helicopter","Status":"Targeted by Israel"}},{"type":"Feature","geometry":{"type":"Point","coordinates":[47.1603098470001,34.3513780930001]},"properties":{"Date":null,"SiteTargeted":"Iranian AH-1 Cobra Helicopter","Status":"Targeted by Israel"}},{"type":"Feature","geometry":{"type":"Point","coordinates":[47.1593317960001,34.3502696350001]},"properties":{"Date":null,"SiteTargeted":"Iranian AH-1 Cobra Helicopter","Status":"Targeted by Israel"}},{"type":"Feature","geometry":{"type":"Point","coordinates":[47.158541685,34.350714553]},"properties":{"Date":null,"SiteTargeted":"Iranian AH-1 Cobra Helicopter","Status":"Targeted by Israel"}},{"type":"Feature","geometry":{"type":"Point","coordinates":[47.16232081,34.3485495130001]},"properties":{"Date":"18 June 2025","SiteTargeted":"Iranian AH-1 Cobra Helicopter","Status":"Targeted by Israel"}},{"type":"Feature","geometry":{"type":"Point","coordinates":[47.162636585,34.3488322960001]},"properties":{"Date":"18 June 2025","SiteTargeted":"Iranian AH-1 Cobra Helicopter","Status":"Targeted by Israel"}},{"type":"Feature","geometry":{"type":"Point","coordinates":[47.1629985260001,34.3492992560001]},"properties":{"Date":"18 June 2025","SiteTargeted":"Iranian AH-1 Cobra Helicopter","Status":"Targeted by Israel"}},{"type":"Feature","geometry":{"type":"Point","coordinates":[47.163102085,34.3488620100001]},"properties":{"Date":"18 June 2025","SiteTargeted":"Iranian AH-1 Cobra Helicopter","Status":"Targeted by Israel"}},{"type":"Feature","geometry":{"type":"Point","coordinates":[47.1624347090001,34.350120051]},"properties":{"Date":"18 June 2025","SiteTargeted":"Iranian AH-1 Cobra Helicopter","Status":"Targeted by Israel"}},{"type":"Feature","geometry":{"type":"Point","coordinates":[47.164160646,34.3529410300001]},"properties":{"Date":"18 June 2025","SiteTargeted":"Iranian AH-1 Cobra Helicopter","Status":"Targeted by Israel"}},{"type":"Feature","geometry":{"type":"Point","coordinates":[47.1646974110001,34.352993397]},"properties":{"Date":"18 June 2025","SiteTargeted":"Iranian AH-1 Cobra Helicopter","Status":"Targeted by Israel"}},{"type":"Feature","geometry":{"type":"Point","coordinates":[47.1657316640001,34.353386152]},"properties":{"Date":"18 June 2025","SiteTargeted":"Iranian AH-1 Cobra Helicopter","Status":"Targeted by Israel"}},{"type":"Feature","geometry":{"type":"Point","coordinates":[47.164902516,34.354097473]},"properties":{"Date":"18 June 2025","SiteTargeted":"Iranian AH-1 Cobra Helicopter","Status":"Targeted by Israel"}},{"type":"Feature","geometry":{"type":"Point","coordinates":[47.165325818,34.353233414]},"properties":{"Date":"18 June 2025","SiteTargeted":"Iranian AH-1 Cobra Helicopter","Status":"Targeted by Israel"}},{"type":"Feature","geometry":{"type":"Point","coordinates":[47.16447485,34.3542894870001]},"properties":{"Date":"18 June 2025","SiteTargeted":"Iranian AH-1 Cobra Helicopter","Status":"Targeted by Israel"}},{"type":"Feature","geometry":{"type":"Point","coordinates":[47.1664766750001,34.351437392]},"properties":{"Date":"18 June 2025","SiteTargeted":"Iranian AH-1 Cobra Helicopter","Status":"Targeted by Israel"}},{"type":"Feature","geometry":{"type":"Point","coordinates":[47.1668760630001,34.352224995]},"properties":{"Date":"18 June 2025","SiteTargeted":"Iranian AH-1 Cobra Helicopter","Status":"Targeted by Israel"}},{"type":"Feature","geometry":{"type":"Point","coordinates":[47.1672866220001,34.3520657990001]},"properties":{"Date":"18 June 2025","SiteTargeted":"Iranian AH-1 Cobra Helicopter","Status":"Targeted by Israel"}},{"type":"Feature","geometry":{"type":"Point","coordinates":[47.1667699320001,34.3517334410001]},"properties":{"Date":"18 June 2025","SiteTargeted":"Iranian AH-1 Cobra Helicopter","Status":"Targeted by Israel"}},{"type":"Feature","geometry":{"type":"Point","coordinates":[47.167800519,34.352252924]},"properties":{"Date":"18 June 2025","SiteTargeted":"Iranian AH-1 Cobra Helicopter","Status":"Targeted by Israel"}},{"type":"Feature","geometry":{"type":"Point","coordinates":[47.1679541300001,34.351892638]},"properties":{"Date":"18 June 2025","SiteTargeted":"Iranian AH-1 Cobra Helicopter","Status":"Targeted by Israel"}},{"type":"Feature","geometry":{"type":"Point","coordinates":[47.1679988170001,34.3508229490001]},"properties":{"Date":"18 June 2025","SiteTargeted":"Iranian AH-1 Cobra Helicopter","Status":"Targeted by Israel"}},{"type":"Feature","geometry":{"type":"Point","coordinates":[47.1684037900001,34.3515882090001]},"properties":{"Date":"18 June 2025","SiteTargeted":"Iranian AH-1 Cobra Helicopter","Status":"Targeted by Israel"}},{"type":"Feature","geometry":{"type":"Point","coordinates":[47.1664264030001,34.348557891]},"properties":{"Date":"18 June 2025","SiteTargeted":"Iranian AH-1 Cobra Helicopter","Status":"Targeted by Israel"}},{"type":"Feature","geometry":{"type":"Point","coordinates":[47.1669095780001,34.348954486]},"properties":{"Date":"18 June 2025","SiteTargeted":"Iranian AH-1 Cobra Helicopter","Status":"Targeted by Israel"}},{"type":"Feature","geometry":{"type":"Point","coordinates":[47.1658063740001,34.348309321]},"properties":{"Date":"18 June 2025","SiteTargeted":"Iranian AH-1 Cobra Helicopter","Status":"Targeted by Israel"}},{"type":"Feature","geometry":{"type":"Point","coordinates":[47.1654218240001,34.3481450630001]},"properties":{"Date":"18 June 2025","SiteTargeted":"Iranian AH-1 Cobra Helicopter","Status":"Targeted by Israel"}},{"type":"Feature","geometry":{"type":"Point","coordinates":[47.16531709,34.3484941780001]},"properties":{"Date":"18 June 2025","SiteTargeted":"Iranian AH-1 Cobra Helicopter","Status":"Targeted by Israel"}},{"type":"Feature","geometry":{"type":"Point","coordinates":[47.1648850600001,34.348790926]},"properties":{"Date":"18 June 2025","SiteTargeted":"Iranian AH-1 Cobra Helicopter","Status":"Targeted by Israel"}},{"type":"Feature","geometry":{"type":"Point","coordinates":[47.1653039980001,34.349541523]},"properties":{"Date":"18 June 2025","SiteTargeted":"Iranian AH-1 Cobra Helicopter","Status":"Targeted by Israel"}},{"type":"Feature","geometry":{"type":"Point","coordinates":[47.1652559950001,34.3491487680001]},"properties":{"Date":"18 June 2025","SiteTargeted":"Iranian AH-1 Cobra Helicopter","Status":"Targeted by Israel"}}]}